[{"name":"MyShape","category_code":"ecommerce","office":{"type":"Point","coordinates":[-118.132377,34.141876]},"clean_state":"success"},{"name":"LawCrossing","category_code":"web","office":{"type":"Point","coordinates":[-118.1323783,34.1428388]},"clean_state":"success"},{"name":"BCG Attorney Search","category_code":"legal","office":{"type":"Point","coordinates":[-118.1323783,34.1428388]},"clean_state":"success"},{"name":"FastSoft","category_code":"software","office":{"type":"Point","coordinates":[-118.140553,34.142973]},"clean_state":"success"},{"name":"eHarmony","category_code":"web","office":{"type":"Point","coordinates":[-118.132351,34.145946]},"clean_state":"success"},{"name":"Visible Theory","category_code":"web","office":{"type":"Point","coordinates":[-118.129329,34.145904]},"clean_state":"success"},{"name":"OpenX","category_code":"advertising","office":{"type":"Point","coordinates":[-118.1327468,34.1494713]},"clean_state":"success"},{"name":"Central Desktop","category_code":"public_relations","office":{"type":"Point","coordinates":[-118.121822,34.148374]},"clean_state":"success"},{"name":"iChange","category_code":"health","office":{"type":"Point","coordinates":[-118.149767,34.144926]},"clean_state":"success"},{"name":"Cramster","category_code":"web","office":{"type":"Point","coordinates":[-118.148896,34.147047]},"clean_state":"success"},{"name":"SupplyFrame","category_code":"advertising","office":{"type":"Point","coordinates":[-118.151542,34.143885]},"clean_state":"success"},{"name":"X1 Technologies","category_code":"software","office":{"type":"Point","coordinates":[-118.153136,34.146436]},"clean_state":"success"},{"name":"Snap Technologies","category_code":"web","office":{"type":"Point","coordinates":[-118.153136,34.146436]},"clean_state":"success"},{"name":"Idealab","category_code":null,"office":{"type":"Point","coordinates":[-118.153136,34.146436]},"clean_state":"success"},{"name":"Perfect Market","category_code":"software","office":{"type":"Point","coordinates":[-118.153136,34.146436]},"clean_state":"success"},{"name":"eSolar","category_code":"cleantech","office":{"type":"Point","coordinates":[-118.153136,34.146436]},"clean_state":"success"},{"name":"AltaVista","category_code":"web","office":{"type":"Point","coordinates":[-118.1541525,34.1475204]},"clean_state":"success"},{"name":"Bankaholic","category_code":"web","office":{"type":"Point","coordinates":[-118.10529,34.122322]},"clean_state":"success"},{"name":"NearU Search","category_code":"mobile","office":{"type":"Point","coordinates":[-118.168104,34.144298]},"clean_state":"success"},{"name":"Big Stage","category_code":"web","office":{"type":"Point","coordinates":[-118.174878,34.111471]},"clean_state":"success"},{"name":"Big Stage","category_code":"web","office":{"type":"Point","coordinates":[-118.174878,34.111471]},"clean_state":"success"},{"name":"Blogged","category_code":"web","office":{"type":"Point","coordinates":[-118.13461,34.091562]},"clean_state":"success"},{"name":"Goldstar","category_code":"ecommerce","office":{"type":"Point","coordinates":[-118.1303,34.1897]},"clean_state":"success"},{"name":"The MacNeal Group","category_code":"software","office":{"type":"Point","coordinates":[-118.1597034,34.1866681]},"clean_state":"success"},{"name":"Siimpel Corporation","category_code":"hardware","office":{"type":"Point","coordinates":[-118.0215818,34.1086325]},"clean_state":"success"},{"name":"Zigabid","category_code":"web","office":{"type":"Point","coordinates":[-118.209263,34.208304]},"clean_state":"success"},{"name":"Ondax","category_code":"hardware","office":{"type":"Point","coordinates":[-118.014846,34.13915]},"clean_state":"success"},{"name":"InfoAppenders","category_code":"other","office":{"type":"Point","coordinates":[-118.254578,34.152449]},"clean_state":"success"},{"name":"Across Systems","category_code":"software","office":{"type":"Point","coordinates":[-118.2551,34.1527593]},"clean_state":"success"},{"name":"YellowPages","category_code":"web","office":{"type":"Point","coordinates":[-118.255197,34.155224]},"clean_state":"success"},{"name":"WirelessGround","category_code":"mobile","office":{"type":"Point","coordinates":[-118.256594,34.124035]},"clean_state":"success"},{"name":"Soliant Energy","category_code":"cleantech","office":{"type":"Point","coordinates":[-118.001268,34.144014]},"clean_state":"success"},{"name":"Mezimedia","category_code":"web","office":{"type":"Point","coordinates":[-118.000884,34.146992]},"clean_state":"success"},{"name":"High Density Networks","category_code":"network_hosting","office":{"type":"Point","coordinates":[-118.235338,34.058101]},"clean_state":"success"},{"name":"SportsGenie","category_code":"games_video","office":{"type":"Point","coordinates":[-118.2429,34.0522]},"clean_state":"success"},{"name":"TripUp","category_code":"web","office":{"type":"Point","coordinates":[-118.243425,34.052187]},"clean_state":"success"},{"name":"WebbAlert","category_code":"games_video","office":{"type":"Point","coordinates":[-118.243425,34.052187]},"clean_state":"success"},{"name":"Revver","category_code":"games_video","office":{"type":"Point","coordinates":[-118.243425,34.052187]},"clean_state":"success"},{"name":"GumGum","category_code":"advertising","office":{"type":"Point","coordinates":[-118.243425,34.052187]},"clean_state":"success"},{"name":"Taltopia","category_code":"games_video","office":{"type":"Point","coordinates":[-118.243425,34.052187]},"clean_state":"success"},{"name":"Magento","category_code":"ecommerce","office":{"type":"Point","coordinates":[-118.243425,34.052187]},"clean_state":"success"},{"name":"Channel M","category_code":"advertising","office":{"type":"Point","coordinates":[-118.243425,34.052187]},"clean_state":"success"},{"name":"OVGuide","category_code":"games_video","office":{"type":"Point","coordinates":[-118.243425,34.052187]},"clean_state":"success"},{"name":"FirstString","category_code":"search","office":{"type":"Point","coordinates":[-118.243425,34.052187]},"clean_state":"success"},{"name":"LiveAutographs","category_code":"web","office":{"type":"Point","coordinates":[-118.243425,34.052187]},"clean_state":"success"},{"name":"Jamba","category_code":"mobile","office":{"type":"Point","coordinates":[-118.243425,34.052187]},"clean_state":"success"},{"name":"SceneCaster","category_code":"other","office":{"type":"Point","coordinates":[-118.243425,34.052187]},"clean_state":"success"},{"name":"SDI Semiconductor Instruments","category_code":"hardware","office":{"type":"Point","coordinates":[-118.243425,34.052187]},"clean_state":"success"},{"name":"Skwibble","category_code":"web","office":{"type":"Point","coordinates":[-118.243425,34.052187]},"clean_state":"success"},{"name":"Weblocal","category_code":"other","office":{"type":"Point","coordinates":[-118.243425,34.052187]},"clean_state":"success"},{"name":"Skwibble","category_code":"web","office":{"type":"Point","coordinates":[-118.243425,34.052187]},"clean_state":"success"},{"name":"Weblocal","category_code":"other","office":{"type":"Point","coordinates":[-118.243425,34.052187]},"clean_state":"success"},{"name":"Hollywood Interactive Group","category_code":"web","office":{"type":"Point","coordinates":[-118.243425,34.052187]},"clean_state":"success"},{"name":"NOTCOT","category_code":"web","office":{"type":"Point","coordinates":[-118.243425,34.052187]},"clean_state":"success"},{"name":"PlayerAuctions","category_code":"games_video","office":{"type":"Point","coordinates":[-118.243425,34.052187]},"clean_state":"success"},{"name":"Tenantplus","category_code":"search","office":{"type":"Point","coordinates":[-118.243425,34.052187]},"clean_state":"success"},{"name":"Saltlick Labs","category_code":"mobile","office":{"type":"Point","coordinates":[-118.243425,34.052187]},"clean_state":"success"},{"name":"ConstructionDeal","category_code":"public_relations","office":{"type":"Point","coordinates":[-118.243425,34.052187]},"clean_state":"success"},{"name":"PlaceVine","category_code":"advertising","office":{"type":"Point","coordinates":[-118.243425,34.052187]},"clean_state":"success"},{"name":"Txtms","category_code":"mobile","office":{"type":"Point","coordinates":[-118.243425,34.052187]},"clean_state":"success"},{"name":"GoGo Lingo","category_code":"games_video","office":{"type":"Point","coordinates":[-118.243425,34.052187]},"clean_state":"success"},{"name":"Link Gateway","category_code":"advertising","office":{"type":"Point","coordinates":[-118.243425,34.052187]},"clean_state":"success"},{"name":"Yoostar","category_code":"games_video","office":{"type":"Point","coordinates":[-118.243425,34.052187]},"clean_state":"success"},{"name":"WebPurify","category_code":"other","office":{"type":"Point","coordinates":[-118.243425,34.052187]},"clean_state":"success"},{"name":"ITTAGS","category_code":"web","office":{"type":"Point","coordinates":[-118.243425,34.052187]},"clean_state":"success"},{"name":"Iteego","category_code":"consulting","office":{"type":"Point","coordinates":[-118.243425,34.052187]},"clean_state":"success"},{"name":"Moviepilot","category_code":"web","office":{"type":"Point","coordinates":[-118.2436849,34.0522342]},"clean_state":"success"},{"name":"Placebase","category_code":"web","office":{"type":"Point","coordinates":[-118.23497,34.044931]},"clean_state":"success"},{"name":"kidthing","category_code":"ecommerce","office":{"type":"Point","coordinates":[-118.237811,34.045845]},"clean_state":"success"},{"name":"SEO Intelligence","category_code":"advertising","office":{"type":"Point","coordinates":[-118.23341,34.041037]},"clean_state":"success"},{"name":"Klout","category_code":"social","office":{"type":"Point","coordinates":[-118.2474287,34.0497638]},"clean_state":"success"},{"name":"MetaNotes","category_code":"web","office":{"type":"Point","coordinates":[-118.289065,34.128046]},"clean_state":"success"},{"name":"Mindbox","category_code":null,"office":{"type":"Point","coordinates":[-118.253254,34.050907]},"clean_state":"success"},{"name":"Sometrics","category_code":"games_video","office":{"type":"Point","coordinates":[-118.251343,34.048857]},"clean_state":"success"},{"name":"IVR Technologies","category_code":"public_relations","office":{"type":"Point","coordinates":[-118.253161,34.050066]},"clean_state":"success"},{"name":"Stickam","category_code":"games_video","office":{"type":"Point","coordinates":[-118.254558,34.051409]},"clean_state":"success"},{"name":"Oversee","category_code":"web","office":{"type":"Point","coordinates":[-118.256305,34.051368]},"clean_state":"success"},{"name":"Creative Kingdom Animation Studios Film","category_code":"other","office":{"type":"Point","coordinates":[-118.2595569,34.0541081]},"clean_state":"success"},{"name":"AECOM Technology","category_code":"consulting","office":{"type":"Point","coordinates":[-118.2568615,34.0507962]},"clean_state":"success"},{"name":"Wedding Channel","category_code":null,"office":{"type":"Point","coordinates":[-118.2587784,34.0486806]},"clean_state":"success"},{"name":"Sensis","category_code":"advertising","office":{"type":"Point","coordinates":[-118.2593181,34.0490571]},"clean_state":"success"},{"name":"Epsilon Concepts","category_code":"consulting","office":{"type":"Point","coordinates":[-118.262233,34.051508]},"clean_state":"success"},{"name":"Interpolls","category_code":null,"office":{"type":"Point","coordinates":[-118.25957,34.048573]},"clean_state":"success"},{"name":"Silvatar Media","category_code":"games_video","office":{"type":"Point","coordinates":[-118.293316,34.1036353]},"clean_state":"success"},{"name":"GeoGraffiti","category_code":"mobile","office":{"type":"Point","coordinates":[-118.264858,34.05285]},"clean_state":"success"},{"name":"Sceneclips","category_code":"games_video","office":{"type":"Point","coordinates":[-118.26728,34.05438]},"clean_state":"success"},{"name":"CrewedUp","category_code":"web","office":{"type":"Point","coordinates":[-118.292618,34.089679]},"clean_state":"success"},{"name":"simple season","category_code":"web","office":{"type":"Point","coordinates":[-118.255804,34.039585]},"clean_state":"success"},{"name":"Fabric Interactive","category_code":"consulting","office":{"type":"Point","coordinates":[-118.288536,34.0748]},"clean_state":"success"},{"name":"ALi Corporation","category_code":"public_relations","office":{"type":"Point","coordinates":[-118.2899533,34.0618146]},"clean_state":"success"},{"name":"Open Television Network","category_code":"games_video","office":{"type":"Point","coordinates":[-118.312902,34.169493]},"clean_state":"success"},{"name":"ESPN","category_code":"web","office":{"type":"Point","coordinates":[-118.324046,34.159434]},"clean_state":"success"},{"name":"PLAVEB Corporation","category_code":"consulting","office":{"type":"Point","coordinates":[-118.3227223,34.1676412]},"clean_state":"success"},{"name":"The Walt Disney Company","category_code":"games_video","office":{"type":"Point","coordinates":[-118.324987,34.156802]},"clean_state":"success"}]